Station|Source|Net|Latitude|Longitude|Distance|Azimuth|Elevation|Station Name
ED05|IRISDMC|YR|42.48349|13.36486|0.2099552424837117|146.7106865766949|1187|ORTOLANO
T1217|INGV|IV|42.711902|12.931333|0.21054361813128916|-75.38184620160305|1004|Poggiodomo PG
ED09|IRISDMC|YR|42.800129|13.42367|0.21177262781552955|48.17221486756159|466|FORCELLA
ED02|IRISDMC|YR|42.603512|12.92884|0.21320117054947868|-105.01862296694584|831|PULCINI
T1246|INGV|IV|42.58331|13.49295|0.2225411965652895|109.8150450771846|1134|Crognaleto
ED12|IRISDMC|YR|42.80637|12.97723|0.2248789376677266|-49.010597898550195|1127|CORTIGNO
T1247|INGV|IV|42.44157|13.29834|0.2273539344857335|163.0649872934859|836|Pizzoli
ED08|IRISDMC|YR|42.458881|13.0542|0.2302643984916609|-150.3503672072522|1016|MICIGLIANO
MC2|INGV|IV|42.911418|13.188976|0.25272869583917207|-3.260198284446685|2|Monte Cornaccione
MMO1|INGV|IV|42.899333|13.326833|0.25542642732458914|19.82128897512328|957|Montemonaco
T1241|INGV|IV|42.85635|13.43116|0.25614532463656686|39.56432411162016|664|Roccafluvione, Frazione Osoli  Ascoli Piceno
ED19|IRISDMC|YR|42.919621|13.13916|0.2654580779184007|-11.043971859534166|1223|SAN PLACIDO
T1216|INGV|IV|42.890667|13.019|0.27017016615155576|-30.9415037322075|620|Castelvecchio PG
ED14|IRISDMC|YR|42.444881|13.43313|0.2706434174383691|142.25151373680958|1230|VASTO
T1215|INGV|IV|42.80188|12.868511|0.2877373190551511|-60.13473567760775|695|Reggiano PG
ED15|IRISDMC|YR|42.527802|13.55816|0.28889681950695256|116.9131187325686|1012|PIETRACAMELA
T1211|INGV|IV|42.532852|12.855145|0.2892045623296961|-115.7633055234743|979|Morro Reatino RI
TERO|INGV|IV|42.62279|13.60393|0.293067715003356|96.98308806330142|673|TERAMO
T0104|INGV|IV|42.3599|13.3382|0.3140824919479715|162.2475463673486|754|Madonna delle Grazie (Coppito) - AQ
ED17|IRISDMC|YR|42.965851|13.30855|0.3153920948984834|13.409018783377908|815|PIEDIVALLE
FEMA|INGV|IV|42.9621|13.04976|0.32463382107815353|-20.981468553328366|1370|Monte Fema
T1221|INGV|IV|42.860508|12.847005|0.3332375787688795|-52.691921294913456|955|Spina Nuova PG
ED18|IRISDMC|YR|42.991459|13.24325|0.33332917177431504|4.3607598024998255|1355|PINTURA
AM05|INGV|XO|42.977404|13.352786|0.3354146804229165|18.331047854629222|464|Amandola (FM) Campo sportivo
ARRO|INGV|IV|42.57917|12.76567|0.3355964143309954|-103.62868832520239|253|Arrone
AQU|INGV|MN|42.354|13.405|0.337711179647947|154.54678569977312|710|L'Aquila, Italy
GIGS|INGV|IV|42.453167|13.572833|0.33821982828903985|127.38472481688495|960|GIGS
T1256|INGV|IV|43.00631|13.22604|0.34744546792655884|2.1036115639055812|1536|Bolognola Macerata
ED22|IRISDMC|YR|43.006748|13.3252|0.3580091615849511|13.77854578555635|620|RUSTICI
ED21|IRISDMC|YR|43.030071|13.27227|0.37389670887191623|7.150750952828693|720|COLMORELLO
MF5|INGV|IV|42.987797|13.459709|0.3767788231025191|29.177619651482626|723|Montefalcone Appennino
FDMO|INGV|IV|43.0365|13.0873|0.3877366006379352|-13.218382153251797|550|Fiordimonte
FIAM|INGV|IV|42.26802|13.11718|0.39685238334927264|-170.1847809209272|1070|FIAMIGNANO
CESI|INGV|IV|43.0049|12.9046|0.4114348237678711|-32.70678189778536|840|Cesi-Serravalle di Chienti
GUMA|INGV|IV|43.0627|13.3352|0.41413093731091266|12.905789376716205|574|Gualdo di Macerata
T1219|INGV|IV|43.05583|13.00473|0.4239441240015653|-20.5719019555197|717|Massaprofoglio MC
CSP1|INGV|IV|43.091833|13.204833|0.43274180523589323|-0.3642283670547604|1188|Cessapalombo
OFFI|INGV|IV|42.935|13.6857|0.44572983874425043|51.59621061267799|320|Offida
SAP2|INGV|IV|43.09667|13.399167|0.45931348516792697|17.63547757503589|402|Sant Angelo in Pontano (MC)
T1220|INGV|IV|43.11018|13.08894|0.45952196872637185|-10.958929596756063|474|Baregnano MC
CESX|INGV|IV|42.608486|12.58676|0.46027653007107305|-96.10259246471044|380|Cesi
PF6|INGV|IV|43.137868|13.194333|0.4788820609249708|-1.2457090067874403|419|Pievefavera
FAGN|INGV|IV|42.26573|13.58379|0.48098739803834634|144.74199362514463|761|FAGNANO
MOMA|INGV|IV|42.80387|12.570071|0.49085895835276383|-72.63012449249598|1040|Monte Martano
MNTT|INGV|IV|43.062|13.595667|0.4927744819951428|35.021942687512954|343|Montottone
MNTP|INGV|IV|43.137378|13.469252|0.5149842260598669|21.674878832500227|325|Montappone
SEF1|INGV|IV|43.14683|12.94762|0.5238565103518004|-21.31437083012941|518|Sefro
VCEL|INGV|IV|42.39455|13.84059|0.5356390783753268|119.38297858702673|1185|VILLA CELIERA
MDAR|INGV|IV|43.1927|13.1427|0.53577735697123|-5.144871160636462|940|Monte Daria
TRTR|INGV|IV|42.8081|13.9138|0.5389837255484428|73.71276663156965|160|Tortoreto Alta
PIO1|INGV|IV|43.178198|12.983759|0.5445857146788472|-17.52234639762737|460|Pioraco
ASSB|INGV|IV|43.0426|12.6587|0.5564139108979377|-46.24393074096499|734|Assisi San Benedetto
CRM1|INGV|IV|43.210082|13.058016|0.5619032825166318|-11.263787339661324|302|Castelraimondo
FIU1|INGV|IV|43.188561|12.931604|0.5669824433319207|-20.867289772781604|479|Fiuminata
SSM1|INGV|IV|43.228783|13.176956|0.5701537321438367|-2.3176693899092786|240|San Severino Marche
GAG1|INGV|IV|43.238063|13.067434|0.588111071600956|-10.071101359168532|484|Gagliole
T0110|INGV|IV|42.22944|13.776334|0.6001029230658217|135.53117356195565|915|Collepietro - AQ
MTL1|INGV|IV|43.256732|13.009601|0.6151209796830979|-13.62786197480452|353|Matelica
SNTG|INGV|IV|43.255|12.94057|0.6273555155395876|-18.129582898397665|650|ESANATOGLIA
PTQR|INGV|IV|42.02193|13.40057|0.6527780891065895|167.38057023108345|957|PIETRAQUARIA
TRE1|INGV|IV|43.311198|13.312848|0.6565418886215355|6.634741484347013|330|Treia
SRES|INGV|IV|42.23696|12.50993|0.6663178535166062|-129.0754020786729|410|Monte Soratte
ATCC|INGV|IV|43.18514|12.63994|0.6709078178502396|-38.17217313500855|557|AVT - Casa Castalda
CADA|INGV|IV|43.1942|13.7614|0.6709468300227162|36.91762963110376|148|Capodarco
EL6|INGV|IV|43.329333|13.101667|0.6747809477596797|-6.6196363078078|978|Elcito